stop_id,stop_name,stop_desc,stop_lat,stop_lon,zone_id
1,"30TH ST. PHL.",,39.956565,-75.182327,5961
2,"ABSECON",,39.424333,-74.502091,333
3,"ALLENDALE",,41.030902,-74.130957,2893
4,"ALLENHURST",,40.237659,-74.006769,5453
5,"ANDERSON STREET",,40.894458,-74.043781,1357
6,"ANNANDALE",,40.645173,-74.878569,5197
8,"ASBURY PARK",,40.215359,-74.014782,5453
9,"ATCO",,39.783547,-74.907588,4429
10,"ATLANTIC CITY",,39.363573,-74.442523,77
11,"AVENEL",,40.577620,-74.277530,2381
12,"BASKING RIDGE",,40.711380,-74.555267,4173
13,"BAY HEAD",,40.075843,-74.046931,5965
14,"BAY STREET",,40.808178,-74.208681,1357
15,"BELMAR",,40.180590,-74.027301,5709
17,"BERKELEY HEIGHTS",,40.682345,-74.442649,2893
18,"BERNARDSVILLE",,40.716847,-74.571023,4173
19,"BLOOMFIELD AVENUE",,40.792709,-74.200043,1101
20,"BOONTON",,40.903378,-74.407733,3661
21,"BOUND BROOK",,40.560931,-74.530614,3661
22,"BRADLEY BEACH",,40.203753,-74.018891,5453
23,"BRICK CHURCH",,40.765136,-74.218609,1101
24,"BRIDGEWATER",,40.559909,-74.551741,3917
25,"BROADWAY",,40.922507,-74.115233,1613
26,"CAMPBELL HALL",,41.450919,-74.266551,5709
27,"CHATHAM",,40.740137,-74.384812,2637
28,"CHERRY HILL",,39.928449,-75.041661,5197
29,"CLIFTON",,40.867998,-74.153199,1357
30,"CONVENT",,40.779043,-74.443435,3149
31,"ROSELLE PARK",,40.667155,-74.266319,1613
32,"CRANFORD",,40.655523,-74.303226,1869
33,"DELAWANNA",,40.831369,-74.131262,845
34,"DENVILLE",,40.883900,-74.481513,4173
35,"DOVER",,40.883415,-74.555887,4429
36,"DUNELLEN",,40.590869,-74.463043,3149
37,"EAST ORANGE",,40.760977,-74.210464,1101
38,"EDISON STATION",,40.519148,-74.410972,3405
39,"EGG HARBOR",,39.526443,-74.648025,1613
40,"ELBERON",,40.265292,-73.997617,5197
41,"ELIZABETH",,40.667859,-74.215171,1357
42,"EMERSON",,40.975038,-74.027467,2125
43,"ESSEX STREET",,40.878973,-74.051893,1357
44,"FANWOOD",,40.641062,-74.385003,2381
45,"FAR HILLS",,40.685715,-74.633734,4429
46,"GARFIELD",,40.866669,-74.105560,1101
47,"GARWOOD",,40.652569,-74.324794,2125
48,"GILLETTE",,40.678256,-74.468314,3149
49,"GLADSTONE",,40.720284,-74.666371,4685
50,"GLEN RIDGE",,40.800590,-74.204652,1101
51,"GLEN ROCK BORO HALL",,40.961370,-74.129300,2125
52,"GLEN ROCK MAIN LINE",,40.962208,-74.133485,2125
54,"HACKETTSTOWN",,40.851444,-74.835352,4941
55,"HAMMONTON",,39.631673,-74.799460,2893
57,"HARRIMAN",,41.293354,-74.139870,5197
58,"HAWTHORNE",,40.942539,-74.152411,1869
59,"HAZLET",,40.415385,-74.190393,4173
60,"HIGH BRIDGE",,40.666884,-74.895863,5453
61,"HIGHLAND AVENUE",,40.766865,-74.243740,1357
62,"HILLSDALE",,41.002416,-74.041033,2381
63,"HOBOKEN",,40.734843,-74.028046,336
64,"HOHOKUS",,40.997369,-74.113521,2637
66,"KINGSLAND",,40.810121,-74.117334,589
67,"LAKE HOPATCONG",,40.904219,-74.665694,4941
68,"LEBANON",,40.636908,-74.835766,5197
69,"LINCOLN PARK",,40.924138,-74.301823,2637
70,"LINDEN",,40.629485,-74.251772,1869
71,"LINDENWOLD",,39.833809,-75.000314,4941
72,"LITTLE FALLS",,40.880669,-74.235372,2125
73,"LITTLE SILVER",,40.326715,-74.041054,4941
74,"LONG BRANCH",,40.297145,-73.988331,5197
75,"LYNDHURST",,40.816478,-74.124161,589
76,"LYONS",,40.684846,-74.549470,3661
77,"MADISON",,40.757028,-74.415102,2893
78,"MAHWAH",,41.094416,-74.146617,3661
79,"MANASQUAN",,40.120573,-74.047685,5965
81,"MAPLEWOOD",,40.731149,-74.275424,1613
83,"METROPARK",,40.568640,-74.329394,2637
84,"METUCHEN",,40.540738,-74.360671,2893
85,"MIDDLETOWN NJ",,40.389780,-74.116131,4429
86,"MIDDLETOWN NY",,41.457488,-74.370390,5965
87,"MILLBURN",,40.725622,-74.303752,1869
88,"MILLINGTON",,40.673518,-74.523603,3661
89,"MONTCLAIR HEIGHTS",,40.857536,-74.202497,1613
90,"MONTVALE",,41.040879,-74.029152,2637
91,"MORRIS PLAINS",,40.828642,-74.478194,4173
92,"MORRISTOWN",,40.797115,-74.474086,3661
93,"MOUNT OLIVE",,40.907376,-74.730653,4941
94,"MOUNT TABOR",,40.875906,-74.481912,4173
95,"MOUNTAIN AVENUE",,40.848717,-74.205303,1613
96,"MOUNTAIN LAKES",,40.885949,-74.433601,3661
97,"MOUNTAIN STATION",,40.755370,-74.253024,1357
98,"MOUNTAIN VIEW",,40.914404,-74.268158,2381
99,"MURRAY HILL",,40.695073,-74.403134,2637
100,"NANUET",,41.090015,-74.014794,4941
101,"NETCONG",,40.897557,-74.707317,4941
102,"NETHERWOOD",,40.629148,-74.403455,2637
103,"NEW BRUNSWICK",,40.497278,-74.445751,3661
104,"NEW PROVIDENCE",,40.712024,-74.386498,2381
105,"NEW YORK PENN STATION",,40.750051,-73.992358,329
106,"NEWARK BROAD ST",,40.747623,-74.171943,589
107,"NEWARK PENN STATION",,40.734223,-74.164550,336
108,"NORTH BRANCH",,40.592022,-74.683802,4685
109,"NORTH ELIZABETH",,40.680267,-74.206165,1357
110,"NEW BRIDGE LANDING",,40.910856,-74.035044,1613
111,"ORADELL",,40.953478,-74.029983,1869
112,"ORANGE",,40.771883,-74.233103,1101
113,"OTISVILLE",,41.471789,-74.529211,6221
114,"PARK RIDGE",,41.032307,-74.036161,2637
115,"PASSAIC",,40.849416,-74.133926,1101
116,"PATERSON",,40.914887,-74.167330,1613
117,"PEAPACK",,40.708796,-74.658469,4685
118,"PEARL RIVER",,41.058181,-74.022313,4941
119,"PERTH AMBOY",,40.509398,-74.273752,3149
120,"PLAINFIELD",,40.618425,-74.420163,2893
121,"PLAUDERVILLE",,40.886988,-74.102232,1357
122,"POINT PLEASANT",,40.092718,-74.048191,5965
123,"PORT JERVIS",,41.374899,-74.694622,6477
124,"PRINCETON",,40.342625,-74.659091,25421
125,"PRINCETON JCT.",,40.316316,-74.623753,4941
126,"RADBURN",,40.939919,-74.121613,1613
127,"RAHWAY",,40.606338,-74.276692,2125
128,"RAMSEY",,41.056422,-74.141877,3149
129,"RARITAN",,40.571010,-74.634361,4429
130,"RED BANK",,40.348284,-74.074538,4685
131,"RIDGEWOOD",,40.980631,-74.120592,2381
132,"RIVER EDGE",,40.935148,-74.029140,1613
134,"RUTHERFORD",,40.828248,-74.100560,845
135,"SALISBURY MILLS-CORNWALL",,41.437075,-74.101871,5453
136,"SHORT HILLS",,40.725249,-74.323751,1869
137,"SLOATSBURG",,41.157138,-74.191304,3917
138,"SOMERVILLE",,40.566075,-74.613970,4429
139,"SOUTH AMBOY",,40.482749,-74.278951,3405
140,"SOUTH ORANGE",,40.745952,-74.260538,1357
141,"SPRING LAKE",,40.150559,-74.035481,5709
142,"SPRING VALLEY",,41.111978,-74.043991,4941
143,"STIRLING",,40.674584,-74.493720,3661
144,"SUFFERN",,41.113540,-74.153442,3661
145,"SUMMIT",,40.716549,-74.357807,2381
146,"TETERBORO",,40.864860,-74.062676,1101
147,"TOWACO",,40.922809,-74.343842,2893
148,"TRENTON TRANSIT CENTER",,40.218518,-74.753923,5709
149,"TUXEDO",,41.194208,-74.184460,3917
150,"UPPER MONTCLAIR",,40.842006,-74.209365,1357
151,"WALDWICK",,41.012736,-74.123412,2637
152,"WALNUT STREET",,40.817218,-74.209630,1357
153,"WATCHUNG AVENUE",,40.829519,-74.206931,1357
154,"WATSESSING AVENUE",,40.782743,-74.198451,1101
155,"WESTFIELD",,40.649450,-74.347629,2125
156,"WESTWOOD",,40.990817,-74.032696,2381
157,"WHITE HOUSE",,40.615616,-74.770660,4941
158,"WOODBRIDGE",,40.553133,-74.276892,2637
159,"WOODCLIFF LAKE",,41.021078,-74.040772,2637
160,"WOOD RIDGE",,40.843974,-74.078716,845
6900,"MILITARY PARK LIGHT RAIL STATION",,40.737408,-74.170800,336
6907,"DAVENPORT AVENUE LIGHT RAIL STATION",,40.772330,-74.178262,336
6957,"NORFOLK AND CENTRAL LIGHT RAIL STATION",,40.745319,-74.183033,336
6966,"PARK AVE NEWARK LIGHT RAIL STATION",,40.758538,-74.184981,336
6995,"WARREN STREET LIGHT RAIL STATION",,40.742420,-74.181230,336
6997,"WASHINGTON STREET LIGHT RAIL STATION",,40.738290,-74.174071,336
9878,"PORT IMPERIAL HBLR STATION",,40.775919,-74.012921,336
14984,"BLOOMFIELD AVE LIGHT RAIL STATION",,40.765460,-74.179863,336
14986,"ORANGE STREET LIGHT RAIL STATION",,40.750629,-74.184951,336
17699,"LINCOLN HARBOR HBLR STATION",,40.761399,-74.024000,336
24070,"PRINCETON JUNCTION ON VAUGHN DRIVE",,40.316020,-74.626881,8192
26316,"BRANCH BROOK PARK STATION",,40.779638,-74.174752,336
26326,"PENN STATION LIGHT RAIL",,40.734810,-74.163603,336
32905,"HAMILTON",,40.255309,-74.704120,5197
32906,"JERSEY AVE.",,40.476912,-74.467360,3661
36994,"EXCHANGE PLACE HBLR STATION",,40.716009,-74.034092,336
36995,"ESSEX STREET HBLR STATION",,40.712838,-74.036082,336
36996,"MARIN BOULEVARD HBLR STATION",,40.714428,-74.043241,336
36997,"JERSEY AVENUE HBLR STATION",,40.714978,-74.048483,336
36998,"LIBERTY STATE PARK PARK-RIDE HBLR",,40.710378,-74.055812,336
36999,"GARFIELD AVENUE HBLR STATION",,40.710509,-74.071120,336
37000,"ML KING DRIVE HBLR STATION",,40.712008,-74.077323,336
37001,"WEST SIDE AVE HBLR STATION",,40.714548,-74.087581,336
37002,"RICHARD STREET HBLR STATION",,40.699118,-74.078643,336
37003,"DANFORTH AVENUE HBLR STATION",,40.692357,-74.087262,336
37004,"E 45TH STREET HBLR STATION",,40.678670,-74.101673,336
37005,"E 34TH STREET HBLR STATION",,40.671778,-74.107493,336
37169,"MATAWAN",,40.420161,-74.223702,3917
37376,"HARBORSIDE HBLR STATION",,40.719527,-74.034003,336
37377,"HARSIMUS COVE HBLR STATION",,40.722668,-74.037281,336
37378,"NEWPORT HBLR STATION",,40.726819,-74.036233,336
37953,"NEWARK AIRPORT RAILROAD STATION",,40.704415,-74.190717,1345
38064,"SILVER LAKE LIGHT RAIL STOP",,40.780298,-74.180473,336
38065,"GROVE STREET LIGHT RAIL STATION",,40.780317,-74.187931,336
38081,"MSU",,40.869782,-74.197439,1613
38105,"UNION",,40.683665,-74.238605,1357
38174,"FRANK R LAUTENBERG SECAUCUS LOWER LEVEL",,40.761188,-74.075821,333
38187,"FRANK R LAUTENBERG SECAUCUS UPPER LEVEL",,40.761188,-74.075821,329
38229,"22ND ST HBLR STATION",,40.661277,-74.116410,336
38291,"TRENTON TRANSIT CENTER",,40.218348,-74.755194,336
38292,"HAMILTON AVENUE",,40.211928,-74.755882,336
38293,"CASS STREET",,40.205409,-74.754313,336
38294,"BORDENTOWN",,40.148110,-74.716271,336
38295,"ROEBLING",,40.116909,-74.770202,336
38296,"FLORENCE",,40.100048,-74.805112,336
38297,"BURLINGTON TOWNE CTR",,40.077358,-74.859421,336
38298,"BURLINGTON SOUTH",,40.074558,-74.868981,336
38299,"BEVERLY/EDGEWATER PARK",,40.061120,-74.915131,336
38300,"DELANCO",,40.048068,-74.950280,336
38301,"RIVERSIDE",,40.039219,-74.958842,336
38302,"CINNAMINSON",,40.016557,-74.999942,336
38303,"RIVERTON",,40.008939,-75.013082,336
38304,"PALMYRA",,40.004240,-75.021123,336
38305,"ROUTE 73/PENNSAUKEN",,39.993109,-75.039610,336
38306,"36TH STREET STATION",,39.960960,-75.079622,336
38307,"WALTER RAND TRANS CTR",,39.943258,-75.120210,336
38308,"COOPER ST/RUTGERS UNIV",,39.947598,-75.124070,336
38309,"AQUARIUM",,39.945647,-75.128693,336
38310,"ENTERTAINMENT CENTER",,39.940948,-75.128473,336
38417,"RAMSEY ROUTE 17 STATION",,41.075130,-74.145485,3149
38441,"2ND STREET HBLR",,40.740789,-74.043101,336
38442,"9TH STREET HBLR",,40.748867,-74.038522,336
38578,"BERGENLINE AVE",,40.781638,-74.021801,336
38579,"TONNELLE AVE HBLR STATION",,40.787330,-74.031263,336
39130,"BROAD STREET LIGHT RAIL STATION",,40.747209,-74.171510,336
39131,"RIVERFRONT STADIUM LIGHT RAIL STOP",,40.745628,-74.169281,336
39132,"WASHINGTON PARK LIGHT RAIL STOP",,40.743938,-74.169853,336
39133,"ATLANTIC STREET LIGHT RAIL STOP",,40.744160,-74.168491,336
39134,"NJ PERFORMING ARTS CENTER AT CENTRE ST",,40.739498,-74.165580,336
39348,"HOBOKEN HBLR TERMINAL",,40.734059,-74.029192,336
39472,"MOUNT ARLINGTON",,40.896590,-74.632731,4941
39635,"WAYNE/ROUTE 23 TRANSIT CENTER [RR]",,40.900256,-74.256971,2381
40570,"MEADOWLANDS SPORTS COMPLEX STATION",,40.813053,-74.072114,845
41586,"PRINCETON RAILROAD STATION",,40.343409,-74.659872,336
42545,"PENN STATION LIGHT RAIL",,40.734810,-74.163603,0
42673,"8TH ST HBLR STATION",,40.654298,-74.129142,0
