stop_id,stop_code,stop_name,stop_desc,stop_lat,stop_lon,zone_id,stop_url,location_type,parent_station,wheelchair_accessible
1,,Grand Central Terminal,,40.752998,-73.977056,,http://as0.mta.info/mnr/stations/station_detail.cfm?key=1,0,,1
4,,Harlem-125th St.,,40.805157,-73.939149,,http://as0.mta.info/mnr/stations/station_detail.cfm?key=2,0,,1
622,,Yankees-E153 St.,,40.8253,-73.9299,,http://as0.mta.info/mnr/stations/station_detail.cfm?key=3,0,,1
9,,Morris Heights,,40.854252,-73.919583,,http://as0.mta.info/mnr/stations/station_detail.cfm?key=4,0,,1
10,,University Heights,,40.862248,-73.91312,,http://as0.mta.info/mnr/stations/station_detail.cfm?key=6,0,,1
11,,Marble Hill,,40.874333,-73.910941,,http://as0.mta.info/mnr/stations/station_detail.cfm?key=8,0,,0
14,,Spuyten Duyvil,,40.878245,-73.921455,,http://as0.mta.info/mnr/stations/station_detail.cfm?key=10,0,,0
16,,Riverdale,,40.903981,-73.914126,,http://as0.mta.info/mnr/stations/station_detail.cfm?key=12,0,,1
17,,Ludlow,,40.924972,-73.904612,,http://as0.mta.info/mnr/stations/station_detail.cfm?key=14,0,,0
18,,Yonkers,,40.935795,-73.902668,,http://as0.mta.info/mnr/stations/station_detail.cfm?key=16,0,,1
19,,Glenwood,,40.950496,-73.899062,,http://as0.mta.info/mnr/stations/station_detail.cfm?key=18,0,,1
20,,Greystone,,40.97104,-73.889989,,http://as0.mta.info/mnr/stations/station_detail.cfm?key=20,0,,1
22,,Hastings-on-Hudson,,40.994109,-73.884512,,http://as0.mta.info/mnr/stations/station_detail.cfm?key=22,0,,1
23,,Dobbs Ferry,,41.012459,-73.87949,,http://as0.mta.info/mnr/stations/station_detail.cfm?key=24,0,,1
24,,Ardsley-on-Hudson,,41.026198,-73.876543,,http://as0.mta.info/mnr/stations/station_detail.cfm?key=26,0,,1
25,,Irvington,,41.039993,-73.873083,,http://as0.mta.info/mnr/stations/station_detail.cfm?key=28,0,,0
27,,Tarrytown,,41.076473,-73.864563,,http://as0.mta.info/mnr/stations/station_detail.cfm?key=30,0,,1
29,,Philipse Manor,,41.09492,-73.869755,,http://as0.mta.info/mnr/stations/station_detail.cfm?key=32,0,,0
30,,Scarborough,,41.135763,-73.866163,,http://as0.mta.info/mnr/stations/station_detail.cfm?key=34,0,,0
31,,Ossining,,41.157663,-73.869281,,http://as0.mta.info/mnr/stations/station_detail.cfm?key=36,0,,0
33,,Croton Harmon,,41.192391,-73.884071,,http://as0.mta.info/mnr/stations/station_detail.cfm?key=38,0,,1
37,,Cortlandt,,41.246259,-73.921884,,http://as0.mta.info/mnr/stations/station_detail.cfm?key=43,0,,1
39,,Peekskill,,41.285962,-73.93042,,http://as0.mta.info/mnr/stations/station_detail.cfm?key=46,0,,1
40,,Manitou,,41.335181,-73.967328,,http://as0.mta.info/mnr/stations/station_detail.cfm?key=48,0,,0
42,,Garrison,,41.38178,-73.947202,,http://as0.mta.info/mnr/stations/station_detail.cfm?key=50,0,,1
43,,Cold Spring,,41.415283,-73.95809,,http://as0.mta.info/mnr/stations/station_detail.cfm?key=54,0,,1
44,,Breakneck Ridge,,41.450181,-73.982449,,http://as0.mta.info/mnr/stations/station_detail.cfm?key=52,0,,0
46,,Beacon,,41.504007,-73.984528,,http://as0.mta.info/mnr/stations/station_detail.cfm?key=56,0,,1
49,,New Hamburg,,41.587448,-73.947226,,http://as0.mta.info/mnr/stations/station_detail.cfm?key=57,0,,0
51,,Poughkeepsie,,41.705839,-73.937946,,http://as0.mta.info/mnr/stations/station_detail.cfm?key=58,0,,1
54,,Melrose,,40.825761,-73.915231,,http://as0.mta.info/mnr/stations/station_detail.cfm?key=104,0,,0
55,,Tremont,,40.847301,-73.89955,,http://as0.mta.info/mnr/stations/station_detail.cfm?key=106,0,,0
56,,Fordham,,40.8615,-73.89058,,http://as0.mta.info/mnr/stations/station_detail.cfm?key=108,0,,1
57,,Botanical Garden,,40.866555,-73.883109,,http://as0.mta.info/mnr/stations/station_detail.cfm?key=110,0,,1
58,,Williams Bridge,,40.878569,-73.871064,,http://as0.mta.info/mnr/stations/station_detail.cfm?key=112,0,,0
59,,Woodlawn,,40.895361,-73.862916,,http://as0.mta.info/mnr/stations/station_detail.cfm?key=114,0,,0
61,,Wakefield,,40.905424,-73.854665,,http://as0.mta.info/mnr/stations/station_detail.cfm?key=116,0,,0
62,,Mt Vernon West,,40.912142,-73.851129,,http://as0.mta.info/mnr/stations/station_detail.cfm?key=118,0,,1
64,,Fleetwood,,40.92699,-73.83948,,http://as0.mta.info/mnr/stations/station_detail.cfm?key=120,0,,1
65,,Bronxville,,40.93978,-73.835208,,http://as0.mta.info/mnr/stations/station_detail.cfm?key=122,0,,0
66,,Tuckahoe,,40.949393,-73.830166,,http://as0.mta.info/mnr/stations/station_detail.cfm?key=124,0,,0
68,,Crestwood,,40.958997,-73.820564,,http://as0.mta.info/mnr/stations/station_detail.cfm?key=126,0,,1
71,,Scarsdale,,40.989168,-73.808634,,http://as0.mta.info/mnr/stations/station_detail.cfm?key=128,0,,0
72,,Hartsdale,,41.010333,-73.796407,,http://as0.mta.info/mnr/stations/station_detail.cfm?key=130,0,,0
74,,White Plains,,41.032589,-73.775208,,http://as0.mta.info/mnr/stations/station_detail.cfm?key=132,0,,1
76,,North White Plains,,41.049806,-73.773142,,http://as0.mta.info/mnr/stations/station_detail.cfm?key=134,0,,1
78,,Valhalla,,41.072819,-73.772599,,http://as0.mta.info/mnr/stations/station_detail.cfm?key=136,0,,1
79,,Mount Pleasant,,41.097165,-73.794235,,http://as0.mta.info/mnr/stations/station_detail.cfm?key=140,0,,0
80,,Hawthorne,,41.097218,-73.794327,,http://as0.mta.info/mnr/stations/station_detail.cfm?key=142,0,,1
81,,Pleasantville,,41.135222,-73.792661,,http://as0.mta.info/mnr/stations/station_detail.cfm?key=146,0,,1
83,,Chappaqua,,41.158015,-73.774885,,http://as0.mta.info/mnr/stations/station_detail.cfm?key=148,0,,1
84,,Mount Kisco,,41.208242,-73.729778,,http://as0.mta.info/mnr/stations/station_detail.cfm?key=150,0,,1
85,,Bedford Hills,,41.237316,-73.699936,,http://as0.mta.info/mnr/stations/station_detail.cfm?key=152,0,,1
86,,Katonah,,41.259552,-73.684155,,http://as0.mta.info/mnr/stations/station_detail.cfm?key=154,0,,1
88,,Golden's Bridge,,41.294338,-73.677655,,http://as0.mta.info/mnr/stations/station_detail.cfm?key=156,0,,1
89,,Purdy's,,41.325775,-73.659061,,http://as0.mta.info/mnr/stations/station_detail.cfm?key=158,0,,1
90,,Croton Falls,,41.347722,-73.662269,,http://as0.mta.info/mnr/stations/station_detail.cfm?key=160,0,,1
91,,Brewster,,41.39447,-73.619802,,http://as0.mta.info/mnr/stations/station_detail.cfm?key=162,0,,1
94,,Southeast,,41.413203,-73.623787,,http://as0.mta.info/mnr/stations/station_detail.cfm?key=163,0,,1
97,,Patterson,,41.511827,-73.604584,,http://as0.mta.info/mnr/stations/station_detail.cfm?key=164,0,,1
98,,Pawling,,41.564205,-73.600524,,http://as0.mta.info/mnr/stations/station_detail.cfm?key=166,0,,1
99,,Appalachian Trail,,41.61081,-73.57871,,http://as0.mta.info/mnr/stations/station_detail.cfm?key=167,0,,0
100,,HM Valley-Wingdale,,41.637525,-73.57145,,http://as0.mta.info/mnr/stations/station_detail.cfm?key=168,0,,1
101,,Dover Plains,,41.740401,-73.576502,,http://as0.mta.info/mnr/stations/station_detail.cfm?key=170,0,,1
176,,Tenmile River,,41.779938,-73.558204,,http://as0.mta.info/mnr/stations/station_detail.cfm?key=172,0,,1
177,,Wassaic,,41.821579,-73.563583,,http://as0.mta.info/mnr/stations/station_detail.cfm?key=174,0,,1
105,,Mt Vernon East ,,40.912161,-73.832185,,http://as0.mta.info/mnr/stations/station_detail.cfm?key=202,0,,1
106,,Pelham,,40.910321,-73.810242,,http://as0.mta.info/mnr/stations/station_detail.cfm?key=204,0,,0
108,,New Rochelle,,40.911605,-73.783807,,http://as0.mta.info/mnr/stations/station_detail.cfm?key=206,0,,1
110,,Larchmont,,40.933394,-73.759792,,http://as0.mta.info/mnr/stations/station_detail.cfm?key=208,0,,1
111,,Mamaroneck,,40.954061,-73.736125,,http://as0.mta.info/mnr/stations/station_detail.cfm?key=210,0,,0
112,,Harrison,,40.969432,-73.712964,,http://as0.mta.info/mnr/stations/station_detail.cfm?key=212,0,,1
114,,Rye,,40.986744,-73.679131,,http://as0.mta.info/mnr/stations/station_detail.cfm?key=214,0,,1
115,,Port Chester,,41.000732,-73.6647,,http://as0.mta.info/mnr/stations/station_detail.cfm?key=216,0,,0
116,,Greenwich,,41.021277,-73.624621,,http://as0.mta.info/mnr/stations/station_detail.cfm?key=218,0,,1
118,,Cos Cob,,41.030171,-73.598306,,http://as0.mta.info/mnr/stations/station_detail.cfm?key=220,0,,0
120,,Riverside,,41.031682,-73.588173,,http://as0.mta.info/mnr/stations/station_detail.cfm?key=222,0,,0
121,,Old Greenwich,,41.033817,-73.565859,,http://as0.mta.info/mnr/stations/station_detail.cfm?key=224,0,,0
124,,Stamford,,41.046611,-73.542846,,http://as0.mta.info/mnr/stations/station_detail.cfm?key=226,0,,1
153,,Glenbrook,,41.070547,-73.520021,,http://as0.mta.info/mnr/stations/station_detail.cfm?key=260,0,,1
154,,Springdale,,41.08876,-73.517828,,http://as0.mta.info/mnr/stations/station_detail.cfm?key=262,0,,1
155,,Talmadge Hill,,41.116012,-73.498149,,http://as0.mta.info/mnr/stations/station_detail.cfm?key=264,0,,1
157,,New Canaan,,41.146305,-73.495626,,http://as0.mta.info/mnr/stations/station_detail.cfm?key=266,0,,1
127,,Noroton Heights,,41.069041,-73.49788,,http://as0.mta.info/mnr/stations/station_detail.cfm?key=228,0,,0
128,,Darien,,41.076913,-73.472966,,http://as0.mta.info/mnr/stations/station_detail.cfm?key=230,0,,1
129,,Rowayton,,41.077456,-73.445527,,http://as0.mta.info/mnr/stations/station_detail.cfm?key=232,0,,0
131,,South Norwalk,,41.09673,-73.421132,,http://as0.mta.info/mnr/stations/station_detail.cfm?key=234,0,,1
158,,Merritt 7,,41.143382,-73.427917,,http://as0.mta.info/mnr/stations/station_detail.cfm?key=268,0,,0
160,,Wilton,,41.196202,-73.432434,,http://as0.mta.info/mnr/stations/station_detail.cfm?key=270,0,,1
161,,Cannondale,,41.21662,-73.426703,,http://as0.mta.info/mnr/stations/station_detail.cfm?key=272,0,,1
162,,Branchville,,41.26763,-73.441421,,http://as0.mta.info/mnr/stations/station_detail.cfm?key=274,0,,1
163,,Redding,,41.325684,-73.4338,,http://as0.mta.info/mnr/stations/station_detail.cfm?key=276,0,,1
164,,Bethel,,41.378159,-73.419118,,http://as0.mta.info/mnr/stations/station_detail.cfm?key=278,0,,1
165,,Danbury,,41.396363,-73.450163,,http://as0.mta.info/mnr/stations/station_detail.cfm?key=280,0,,1
133,,East Norwalk,,41.103996,-73.404588,,http://as0.mta.info/mnr/stations/station_detail.cfm?key=236,0,,0
134,,Westport,,41.118928,-73.371413,,http://as0.mta.info/mnr/stations/station_detail.cfm?key=238,0,,1
136,,Green's Farms,,41.122265,-73.315408,,http://as0.mta.info/mnr/stations/station_detail.cfm?key=240,0,,0
137,,Southport,,41.134844,-73.28897,,http://as0.mta.info/mnr/stations/station_detail.cfm?key=242,0,,0
138,,Fairfield,,41.143077,-73.257742,,http://as0.mta.info/mnr/stations/station_detail.cfm?key=244,0,,0
140,,Bridgeport,,41.178677,-73.187076,,http://as0.mta.info/mnr/stations/station_detail.cfm?key=246,0,,1
143,,Stratford,,41.194255,-73.131532,,http://as0.mta.info/mnr/stations/station_detail.cfm?key=248,0,,0
167,,Derby,,41.319718,-73.083548,,http://as0.mta.info/mnr/stations/station_detail.cfm?key=290,0,,0
168,,Ansonia,,41.340272,-73.078609,,http://as0.mta.info/mnr/stations/station_detail.cfm?key=292,0,,0
169,,Seymour,,41.395139,-73.072499,,http://as0.mta.info/mnr/stations/station_detail.cfm?key=294,0,,0
170,,Beacon Falls,,41.441752,-73.06359,,http://as0.mta.info/mnr/stations/station_detail.cfm?key=295,0,,0
171,,Naugatuck,,41.494204,-73.052655,,http://as0.mta.info/mnr/stations/station_detail.cfm?key=296,0,,0
172,,Waterbury,,41.552728,-73.046126,,http://as0.mta.info/mnr/stations/station_detail.cfm?key=298,0,,1
145,,Milford,,41.223231,-73.057647,,http://as0.mta.info/mnr/stations/station_detail.cfm?key=250,0,,0
149,,New Haven,,41.296501,-72.92829,,http://as0.mta.info/mnr/stations/station_detail.cfm?key=252,0,,1
151,,NH-State St.,,41.304979,-72.921747,,http://as0.mta.info/mnr/stations/station_detail.cfm?key=253,0,,1
